{"type":"FeatureCollection","features":[{"type":"Feature","geometry":{"type":"Point","coordinates":[-75.90975,40.36131]},"properties":{"name":"Albright College","city":"Reading","state":"Pennsylvania","conference":"Middle Atlantic Conferences","division":"NCAA D3","ipedsid":"210571","website":"www.albright.edu","within_hours_away":4}},{"type":"Feature","geometry":{"type":"Point","coordinates":[-80.04933,39.15759]},"properties":{"name":"Alderson Broaddus University","city":"Philippi","state":"West Virginia","conference":"Great Midwest Athletic Conference","division":"NCAA D2","ipedsid":"237118","website":"www.ab.edu/","within_hours_away":4}},{"type":"Feature","geometry":{"type":"Point","coordinates":[-78.7298,39.65267]},"properties":{"name":"Allegany College of Maryland","city":"Cumberland","state":"Maryland","conference":"Maryland Junior College Athletic Association","division":"JC","ipedsid":"161688","website":"www.allegany.edu","within_hours_away":3}},{"type":"Feature","geometry":{"type":"Point","coordinates":[-76.51223,39.04978]},"properties":{"name":"Anne Arundel Community College","city":"Arnold","state":"Maryland","conference":"Maryland Junior College Athletic Association","division":"JC","ipedsid":"161767","website":"www.aacc.edu","within_hours_away":2}},{"type":"Feature","geometry":{"type":"Point","coordinates":[-75.16524,40.09194]},"properties":{"name":"Arcadia University","city":"Glenside","state":"Pennsylvania","conference":"Middle Atlantic Conferences","division":"NCAA D3","ipedsid":"211088","website":"https://www.arcadia.edu","within_hours_away":4}},{"type":"Feature","geometry":{"type":"Point","coordinates":[-74.6823,39.46143]},"properties":{"name":"Atlantic Cape Community College","city":"Mays Landing","state":"New Jersey","conference":"Garden State Athletic Conference","division":"JC","ipedsid":"183655","website":"www.atlantic.edu","within_hours_away":4}},{"type":"Feature","geometry":{"type":"Point","coordinates":[-79.41322,36.57727]},"properties":{"name":"Averett University","city":"Danville","state":"Virginia","conference":"USA South Athletic Conference","division":"NCAA D3","ipedsid":"231420","website":"https://www.averett.edu","within_hours_away":5}},{"type":"Feature","geometry":{"type":"Point","coordinates":[-77.91379,35.73551]},"properties":{"name":"Barton College","city":"Wilson","state":"North Carolina","conference":"Conference Carolinas","division":"NCAA D2","ipedsid":"197911","website":"https://www.barton.edu/","within_hours_away":5}},{"type":"Feature","geometry":{"type":"Point","coordinates":[-74.08876,40.9518]},"properties":{"name":"Bergen Community College","city":"Paramus","state":"New Jersey","conference":"Garden State Athletic Conference","division":"JC","ipedsid":"183743","website":"www.bergen.edu","within_hours_away":5}},{"type":"Feature","geometry":{"type":"Point","coordinates":[-74.19593,40.79423]},"properties":{"name":"Bloomfield College","city":"Bloomfield","state":"New Jersey","conference":"Central Atlantic Collegiate Conference","division":"NCAA D2","ipedsid":"183822","website":"www.bloomfield.edu/","within_hours_away":5}},{"type":"Feature","geometry":{"type":"Point","coordinates":[-76.44642,41.00797]},"properties":{"name":"Bloomsburg University of Pennsylvania","city":"Bloomsburg","state":"Pennsylvania","conference":"Pennsylvania State Athletic Conference","division":"NCAA D2","ipedsid":"211158","website":"www.bloomu.edu","within_hours_away":5}},{"type":"Feature","geometry":{"type":"Point","coordinates":[-78.96905,38.37841]},"properties":{"name":"Bridgewater College","city":"Bridgewater","state":"Virginia","conference":"Old Dominion Athletic Conference","division":"NCAA D3","ipedsid":"231581","website":"https://www.bridgewater.edu/about-us","within_hours_away":3}},{"type":"Feature","geometry":{"type":"Point","coordinates":[-74.1327,40.32491]},"properties":{"name":"Brookdale Community College","city":"Lincroft","state":"New Jersey","conference":"Garden State Athletic Conference ","division":"JC","ipedsid":"183859","website":"https://www.brookdalecc.edu","within_hours_away":5}},{"type":"Feature","geometry":{"type":"Point","coordinates":[-76.13814,36.82775]},"properties":{"name":"Bryant & Stratton College Virginia Beach","city":"Virginia Beach","state":"Virginia","conference":"NJCAA Region 10","division":"JC","ipedsid":"231785","website":"https://www.bryantstratton.edu","within_hours_away":4}},{"type":"Feature","geometry":{"type":"Point","coordinates":[-76.88523,40.95366]},"properties":{"name":"Bucknell University","city":"Lewisburg","state":"Pennsylvania","conference":"Patriot League","division":"NCAA D1","ipedsid":"211291","website":"www.bucknell.edu","within_hours_away":5}},{"type":"Feature","geometry":{"type":"Point","coordinates":[-74.96586,40.23912]},"properties":{"name":"Bucks County Community College","city":"Newtown","state":"Pennsylvania","conference":"Eastern Pennsylvania Athletic Conference","division":"JC","ipedsid":"211307","website":"www.bucks.edu/","within_hours_away":4}},{"type":"Feature","geometry":{"type":"Point","coordinates":[-79.91112,40.82999]},"properties":{"name":"Butler County Community College","city":"Butler","state":"Pennsylvania","conference":"Western Pennsylvania Collegiate Conference","division":"JC","ipedsid":"211343","website":"www.bc3.edu","within_hours_away":5}},{"type":"Feature","geometry":{"type":"Point","coordinates":[-75.37214,40.05461]},"properties":{"name":"Cabrini University","city":"Radnor","state":"Pennsylvania","conference":"Colonial States Athletic Conference","division":"NCAA D3","ipedsid":"211352","website":"www.cabrini.edu","within_hours_away":4}},{"type":"Feature","geometry":{"type":"Point","coordinates":[-74.90952,40.16581]},"properties":{"name":"Cairn University","city":"Langhorne","state":"Pennsylvania","conference":"Colonial States Athletic Conference","division":"NCAA D3","ipedsid":"215114","website":"www.cairn.edu","within_hours_away":4}},{"type":"Feature","geometry":{"type":"Point","coordinates":[-74.27228,40.83404]},"properties":{"name":"Caldwell University","city":"Caldwell","state":"New Jersey","conference":"Central Atlantic Collegiate Conference","division":"NCAA D2","ipedsid":"183910","website":"www.caldwell.edu","within_hours_away":5}},{"type":"Feature","geometry":{"type":"Point","coordinates":[-79.88447,40.06644]},"properties":{"name":"California University of Pennsylvania","city":"California","state":"Pennsylvania","conference":"Pennsylvania State Athletic Conference","division":"NCAA D2","ipedsid":"211361","website":"www.calu.edu","within_hours_away":5}},{"type":"Feature","geometry":{"type":"Point","coordinates":[-75.04045,39.78505]},"properties":{"name":"Camden County College","city":"Blackwood","state":"New Jersey","conference":"Garden State Athletic Conference ","division":"JC","ipedsid":"183938","website":"https://www.camdencc.edu","within_hours_away":4}},{"type":"Feature","geometry":{"type":"Point","coordinates":[-76.99897,38.93576]},"properties":{"name":"Catholic University of America","city":"Washington","state":"District Of Columbia","conference":"New England Women's & Men's Athletic Conference","division":"NCAA D3","ipedsid":"131283","website":"https://www.catholic.edu","within_hours_away":2}},{"type":"Feature","geometry":{"type":"Point","coordinates":[-75.95599,39.64223]},"properties":{"name":"Cecil College","city":"North East","state":"Maryland","conference":"Maryland Junior College Athletic Conference","division":"JC","ipedsid":"162104","website":"www.cecil.edu","within_hours_away":3}},{"type":"Feature","geometry":{"type":"Point","coordinates":[-79.92609,40.44848]},"properties":{"name":"Chatham University","city":"Pittsburgh","state":"Pennsylvania","conference":"Presidents' Athletic Conference","division":"NCAA D3","ipedsid":"211556","website":"www.chatham.edu","within_hours_away":5}},{"type":"Feature","geometry":{"type":"Point","coordinates":[-76.08308,38.95179]},"properties":{"name":"Chesapeake College","city":"Wye Mills","state":"Maryland","conference":"Maryland JUCO Athletic Conference","division":"JC","ipedsid":"162168","website":"www.chesapeake.edu","within_hours_away":3}},{"type":"Feature","geometry":{"type":"Point","coordinates":[-75.22887,40.08682]},"properties":{"name":"Chestnut Hill College","city":"Philadelphia","state":"Pennsylvania","conference":"Central Atlantic Collegiate Conference","division":"NCAA D2","ipedsid":"211583","website":"www.chc.edu","within_hours_away":4}},{"type":"Feature","geometry":{"type":"Point","coordinates":[-77.09912,36.43625]},"properties":{"name":"Chowan University","city":"Murfreesboro","state":"North Carolina","conference":"Conference Carolinas","division":"NCAA D2","ipedsid":"198303","website":"https://www.chowan.edu/","within_hours_away":5}},{"type":"Feature","geometry":{"type":"Point","coordinates":[-76.49511,37.06332]},"properties":{"name":"Christopher Newport University","city":"Newport News","state":"Virginia","conference":"Capital Athletic Conference","division":"NCAA D3","ipedsid":"231712","website":"cnu.edu/","within_hours_away":4}},{"type":"Feature","geometry":{"type":"Point","coordinates":[-75.68427,41.4962]},"properties":{"name":"Clarks Summit University","city":"Clarks Summit","state":"Pennsylvania","conference":"Colonial States Athletic Conference","division":"NCAA D3","ipedsid":"211024","website":"https://www.clarkssummitu.edu/","within_hours_away":5}},{"type":"Feature","geometry":{"type":"Point","coordinates":[-77.00933,38.55962]},"properties":{"name":"College of Southern Maryland","city":"La Plata","state":"Maryland","conference":"Maryland Junior College Athletic Conference","division":"JC","ipedsid":"162122","website":"www.csmd.edu/","within_hours_away":2}},{"type":"Feature","geometry":{"type":"Point","coordinates":[-73.96191,40.80831]},"properties":{"name":"Columbia University","city":"New York","state":"New York","conference":"Ivy League","division":"NCAA D1","ipedsid":"190150","website":"www.columbia.edu","within_hours_away":5}},{"type":"Feature","geometry":{"type":"Point","coordinates":[-80.01397,40.44932]},"properties":{"name":"Community College of Allegheny County","city":"Pittsburgh","state":"Pennsylvania","conference":"Western Pennsylvania Collegiate Conference","division":"JC","ipedsid":"210605","website":"https://www.ccac.edu","within_hours_away":5}},{"type":"Feature","geometry":{"type":"Point","coordinates":[-76.4821,39.35263]},"properties":{"name":"Community College of Baltimore County","city":"Baltimore","state":"Maryland","conference":"Maryland Junior College Athletic Conference","division":"JC","ipedsid":"434672","website":"www.ccbcmd.edu","within_hours_away":2}},{"type":"Feature","geometry":{"type":"Point","coordinates":[-81.00568,37.4252]},"properties":{"name":"Concord University","city":"Athens","state":"West Virginia","conference":"Mountain East Conference","division":"NCAA D2","ipedsid":"237330","website":"www.concord.edu","within_hours_away":5}},{"type":"Feature","geometry":{"type":"Point","coordinates":[-76.65857,39.31107]},"properties":{"name":"Coppin State University","city":"Baltimore","state":"Maryland","conference":"Mid-Eastern Athletic","division":"NCAA D1","ipedsid":"162283","website":"www.coppin.edu","within_hours_away":2}},{"type":"Feature","geometry":{"type":"Point","coordinates":[-79.84588,38.93045]},"properties":{"name":"Davis & Elkins College","city":"Elkins","state":"West Virginia","conference":"Great Midwest Athletic Conference","division":"NCAA D2","ipedsid":"237358","website":"www.dewv.edu","within_hours_away":4}},{"type":"Feature","geometry":{"type":"Point","coordinates":[-75.3766,40.54013]},"properties":{"name":"DeSales University","city":"Center Valley","state":"Pennsylvania","conference":"Middle Atlantic Conferences","division":"NCAA D3","ipedsid":"210739","website":"www.desales.edu","within_hours_away":5}},{"type":"Feature","geometry":{"type":"Point","coordinates":[-75.39311,39.96669]},"properties":{"name":"Delaware County Community College","city":"Media","state":"Pennsylvania","conference":"Eastern Pennsylvania Athletic Conference","division":"JC","ipedsid":"211927","website":"www.dccc.edu","within_hours_away":4}},{"type":"Feature","geometry":{"type":"Point","coordinates":[-75.54056,39.18718]},"properties":{"name":"Delaware State University","city":"Dover","state":"Delaware","conference":"Mid-Eastern Athletic Conference","division":"NCAA D1","ipedsid":"130934","website":"www.desu.edu","within_hours_away":4}},{"type":"Feature","geometry":{"type":"Point","coordinates":[-75.56009,39.19837]},"properties":{"name":"Delaware Technical Community College","city":"Dover","state":"Delaware","conference":"Eastern Pennsylvania Athletic Conference","division":"JC","ipedsid":"130907","website":"https://www.dtcc.edu","within_hours_away":4}},{"type":"Feature","geometry":{"type":"Point","coordinates":[-75.15828,40.29791]},"properties":{"name":"Delaware Valley University","city":"Doylestown","state":"Pennsylvania","conference":"Middle Atlantic Conferences","division":"NCAA D3","ipedsid":"211981","website":"www.delval.edu","within_hours_away":4}},{"type":"Feature","geometry":{"type":"Point","coordinates":[-77.19786,40.20278]},"properties":{"name":"Dickinson College","city":"Carlisle","state":"Pennsylvania","conference":"Centennial Conference","division":"NCAA D3","ipedsid":"212009","website":"www.dickinson.edu","within_hours_away":3}},{"type":"Feature","geometry":{"type":"Point","coordinates":[-74.42791,40.76066]},"properties":{"name":"Drew University","city":"Madison","state":"New Jersey","conference":"Landmark Conference","division":"NCAA D3","ipedsid":"184348","website":"www.drew.edu","within_hours_away":5}},{"type":"Feature","geometry":{"type":"Point","coordinates":[-78.93865,36.00231]},"properties":{"name":"Duke University","city":"Durham","state":"North Carolina","conference":"Atlantic Coast Conference","division":"NCAA D1","ipedsid":"198419","website":"WWW.DUKE.EDU","within_hours_away":5}},{"type":"Feature","geometry":{"type":"Point","coordinates":[-75.17378,40.99701]},"properties":{"name":"East Stroudsburg University of Pennsylvania","city":"East Stroudsburg","state":"Pennsylvania","conference":"Pennsylvania State Athletic Conference","division":"NCAA D2","ipedsid":"212115","website":"www4.esu.edu/","within_hours_away":5}},{"type":"Feature","geometry":{"type":"Point","coordinates":[-78.878,38.47007]},"properties":{"name":"Eastern Mennonite University","city":"Harrisonburg","state":"Virginia","conference":"Old Dominion Athletic Conference","division":"NCAA D3","ipedsid":"232043","website":"https://emu.edu","within_hours_away":2}},{"type":"Feature","geometry":{"type":"Point","coordinates":[-75.37304,40.05207]},"properties":{"name":"Eastern University","city":"Saint Davids","state":"Pennsylvania","conference":"Middle Atlantic Conferences","division":"NCAA D3","ipedsid":"212133","website":"https://www.eastern.edu/about/student-consumer-information","within_hours_away":4}},{"type":"Feature","geometry":{"type":"Point","coordinates":[-76.59151,40.15003]},"properties":{"name":"Elizabethtown College","city":"Elizabethtown","state":"Pennsylvania","conference":"Landmark Conference","division":"NCAA D3","ipedsid":"212197","website":"www.etown.edu","within_hours_away":3}},{"type":"Feature","geometry":{"type":"Point","coordinates":[-74.43538,40.77732]},"properties":{"name":"FAIRLEIGH DICKINSON UNIVERSITY FLORHAM","city":"Madison","state":"New Jersey","conference":"Middle Atlantic Conferences","division":"NCAA D3","ipedsid":"184694","website":"www.fdu.edu","within_hours_away":5}},{"type":"Feature","geometry":{"type":"Point","coordinates":[-74.03001,40.89613]},"properties":{"name":"Fairleigh Dickinson University","city":"Teaneck","state":"New Jersey","conference":"Northeast Conference","division":"NCAA D1","ipedsid":"184603","website":"www.fdu.edu","within_hours_away":5}},{"type":"Feature","geometry":{"type":"Point","coordinates":[-80.16206,39.48595]},"properties":{"name":"Fairmont State University","city":"Fairmont","state":"West Virginia","conference":"Mountain East Conference","division":"NCAA D2","ipedsid":"237367","website":"https://www.fairmontstate.edu/","within_hours_away":5}},{"type":"Feature","geometry":{"type":"Point","coordinates":[-74.09643,40.86726]},"properties":{"name":"Felician University","city":"Lodi","state":"New Jersey","conference":"Central Atlantic Collegiate Conference","division":"NCAA D2","ipedsid":"184612","website":"www.felician.edu","within_hours_away":5}},{"type":"Feature","geometry":{"type":"Point","coordinates":[-80.0209,36.92661]},"properties":{"name":"Ferrum College","city":"Ferrum","state":"Virginia","conference":"USA South Athletic Conference","division":"NCAA D3","ipedsid":"232089","website":"www.ferrum.edu","within_hours_away":5}},{"type":"Feature","geometry":{"type":"Point","coordinates":[-73.88988,40.86137]},"properties":{"name":"Fordham University","city":"Bronx","state":"New York","conference":"Atlantic 10 Conference","division":"NCAA D1","ipedsid":"191241","website":"www.fordham.edu","within_hours_away":5}},{"type":"Feature","geometry":{"type":"Point","coordinates":[-76.31907,40.04809]},"properties":{"name":"Franklin and Marshall College","city":"Lancaster","state":"Pennsylvania","conference":"Centennial Conference","division":"NCAA D3","ipedsid":"212577","website":"WWW.FANDM.EDU","within_hours_away":4}},{"type":"Feature","geometry":{"type":"Point","coordinates":[-77.41788,39.45225]},"properties":{"name":"Frederick Community College","city":"Frederick","state":"Maryland","conference":"Maryland Junior College Athletic Conference","division":"JC","ipedsid":"162557","website":"www.frederick.edu","within_hours_away":2}},{"type":"Feature","geometry":{"type":"Point","coordinates":[-78.9339,39.65148]},"properties":{"name":"Frostburg State University","city":"Frostburg","state":"Maryland","conference":"New Jersey Athletic Conference","division":"NCAA D2","ipedsid":"162584","website":"www.frostburg.edu","within_hours_away":3}},{"type":"Feature","geometry":{"type":"Point","coordinates":[-76.99371,38.90734]},"properties":{"name":"Gallaudet University","city":"Washington","state":"District Of Columbia","conference":"Eastern Collegiate Football Conference","division":"NCAA D3","ipedsid":"131450","website":"www.gallaudet.edu","within_hours_away":2}},{"type":"Feature","geometry":{"type":"Point","coordinates":[-79.34326,39.56066]},"properties":{"name":"Garrett College","city":"McHenry","state":"Maryland","conference":"Maryland JUCO Athletic Conference","division":"JC","ipedsid":"162609","website":"www.garrettcollege.edu/index.php","within_hours_away":4}},{"type":"Feature","geometry":{"type":"Point","coordinates":[-80.32103,40.77216]},"properties":{"name":"Geneva College","city":"Beaver Falls","state":"Pennsylvania","conference":"Presidents' Athletic Conference","division":"NCAA D3","ipedsid":"212656","website":"www.geneva.edu","within_hours_away":5}},{"type":"Feature","geometry":{"type":"Point","coordinates":[-77.3079,38.83087]},"properties":{"name":"George Mason University","city":"Fairfax","state":"Virginia","conference":"Atlantic 10 Conference","division":"NCAA D1","ipedsid":"232186","website":"https://www2.gmu.edu/","within_hours_away":1}},{"type":"Feature","geometry":{"type":"Point","coordinates":[-77.04627,38.89911]},"properties":{"name":"George Washington University","city":"Washington","state":"District Of Columbia","conference":"Atlantic 10 Conference","division":"NCAA D1","ipedsid":"131469","website":"https://www.gwu.edu","within_hours_away":1}},{"type":"Feature","geometry":{"type":"Point","coordinates":[-77.07345,38.90876]},"properties":{"name":"Georgetown University","city":"Washington","state":"District Of Columbia","conference":"Big East Conference","division":"NCAA D1","ipedsid":"131496","website":"www.georgetown.edu","within_hours_away":1}},{"type":"Feature","geometry":{"type":"Point","coordinates":[-77.23458,39.83586]},"properties":{"name":"Gettysburg College","city":"Gettysburg","state":"Pennsylvania","conference":"Centennial Conference","division":"NCAA D3","ipedsid":"212674","website":"WWW.GETTYSBURG.EDU","within_hours_away":2}},{"type":"Feature","geometry":{"type":"Point","coordinates":[-80.83342,38.93547]},"properties":{"name":"Glenville State College","city":"Glenville","state":"West Virginia","conference":"Mountain East Conference","division":"NCAA D2","ipedsid":"237385","website":"www.glenville.edu","within_hours_away":5}},{"type":"Feature","geometry":{"type":"Point","coordinates":[-75.68883,39.74102]},"properties":{"name":"Goldey-Beacom College","city":"Wilmington","state":"Delaware","conference":"Central Atlantic Collegiate Conference","division":"NCAA D2","ipedsid":"130989","website":"www.gbc.edu","within_hours_away":3}},{"type":"Feature","geometry":{"type":"Point","coordinates":[-75.23804,40.19756]},"properties":{"name":"Gwynedd Mercy University","city":"Gwynedd Valley","state":"Pennsylvania","conference":"Colonial States Athletic Conference","division":"NCAA D3","ipedsid":"212832","website":"https://www.gmercyu.edu/","within_hours_away":4}},{"type":"Feature","geometry":{"type":"Point","coordinates":[-77.66737,39.63098]},"properties":{"name":"Hagerstown Community College","city":"Hagerstown","state":"Maryland","conference":"Maryland Junior College Conference","division":"JC","ipedsid":"162690","website":"www.hagerstowncc.edu","within_hours_away":2}},{"type":"Feature","geometry":{"type":"Point","coordinates":[-78.46138,37.24252]},"properties":{"name":"Hampden-Sydney College","city":"Hampden Sydney","state":"Virginia","conference":"Old Dominion Athletic Conference","division":"NCAA D3","ipedsid":"232256","website":"www.hsc.edu","within_hours_away":4}},{"type":"Feature","geometry":{"type":"Point","coordinates":[-76.28178,39.56139]},"properties":{"name":"Harford Community College","city":"Bel Air","state":"Maryland","conference":"Maryland Junior College Athletic Conference","division":"JC","ipedsid":"162706","website":"www.harford.edu","within_hours_away":3}},{"type":"Feature","geometry":{"type":"Point","coordinates":[-75.30511,40.00733]},"properties":{"name":"Haverford College","city":"Haverford","state":"Pennsylvania","conference":"Centennial Conference","division":"NCAA D3","ipedsid":"212911","website":"https://www.haverford.edu","within_hours_away":4}},{"type":"Feature","geometry":{"type":"Point","coordinates":[-77.4193,39.42191]},"properties":{"name":"Hood College","city":"Frederick","state":"Maryland","conference":"MAC Commonwealth Conference","division":"NCAA D3","ipedsid":"162760","website":"www.hood.edu","within_hours_away":2}},{"type":"Feature","geometry":{"type":"Point","coordinates":[-75.57066,40.02793]},"properties":{"name":"Immaculata University","city":"Immaculata","state":"Pennsylvania","conference":"Colonial States Athletic Conference","division":"NCAA D3","ipedsid":"213011","website":"www.immaculata.edu","within_hours_away":4}},{"type":"Feature","geometry":{"type":"Point","coordinates":[-79.15989,40.61557]},"properties":{"name":"Indiana University of Pennsylvania","city":"Indiana","state":"Pennsylvania","conference":"Pennsylvania State Athletic Conference","division":"NCAA D2","ipedsid":"213020","website":"www.iup.edu","within_hours_away":5}},{"type":"Feature","geometry":{"type":"Point","coordinates":[-78.87168,38.43536]},"properties":{"name":"James Madison University","city":"Harrisonburg","state":"Virginia","conference":"Colonial Athletic Association","division":"NCAA D1","ipedsid":"232423","website":"www.jmu.edu/","within_hours_away":2}},{"type":"Feature","geometry":{"type":"Point","coordinates":[-76.62073,39.32983]},"properties":{"name":"Johns Hopkins University","city":"Baltimore","state":"Maryland","conference":"Centennial Conference","division":"NCAA D3","ipedsid":"162928","website":"www.jhu.edu","within_hours_away":2}},{"type":"Feature","geometry":{"type":"Point","coordinates":[-78.01511,40.49952]},"properties":{"name":"Juniata College","city":"Huntingdon","state":"Pennsylvania","conference":"Centennial Conference","division":"NCAA D3","ipedsid":"213251","website":"www.juniata.edu","within_hours_away":4}},{"type":"Feature","geometry":{"type":"Point","coordinates":[-74.2347,40.67947]},"properties":{"name":"Kean University","city":"Union","state":"New Jersey","conference":"New Jersey Athletic Conference","division":"NCAA D3","ipedsid":"185262","website":"www.kean.edu","within_hours_away":5}},{"type":"Feature","geometry":{"type":"Point","coordinates":[-75.87807,41.24887]},"properties":{"name":"King's College â€“ Pennsylvania","city":"Wilkes-Barre","state":"Pennsylvania","conference":"Middle Atlantic Conference","division":"NCAA D3","ipedsid":"213321","website":"www.kings.edu","within_hours_away":5}},{"type":"Feature","geometry":{"type":"Point","coordinates":[-75.78537,40.51333]},"properties":{"name":"Kutztown University of Pennsylvania","city":"Kutztown","state":"Pennsylvania","conference":"Pennsylvania State Athletic Conference","division":"NCAA D2","ipedsid":"213349","website":"https://www.kutztown.edu/","within_hours_away":4}},{"type":"Feature","geometry":{"type":"Point","coordinates":[-75.65928,41.41148]},"properties":{"name":"Lackawanna College","city":"Scranton","state":"Pennsylvania","conference":"NJCAA Region 19","division":"JC","ipedsid":"213376","website":"www.lackawanna.edu","within_hours_away":5}},{"type":"Feature","geometry":{"type":"Point","coordinates":[-75.21135,40.69953]},"properties":{"name":"Lafayette College","city":"Easton","state":"Pennsylvania","conference":"Patriot League","division":"NCAA D1","ipedsid":"213385","website":"https://www.lafayette.edu/","within_hours_away":5}},{"type":"Feature","geometry":{"type":"Point","coordinates":[-76.28813,40.07365]},"properties":{"name":"Lancaster Bible College","city":"Lancaster","state":"Pennsylvania","conference":"North Eastern Athletic Conference","division":"NCAA D3","ipedsid":"213400","website":"https://www.LBC.edu","within_hours_away":4}},{"type":"Feature","geometry":{"type":"Point","coordinates":[-76.5138,40.33176]},"properties":{"name":"Lebanon Valley College","city":"Annville","state":"Pennsylvania","conference":"Middle Atlantic Conferences","division":"NCAA D3","ipedsid":"213507","website":"www.lvc.edu","within_hours_away":4}},{"type":"Feature","geometry":{"type":"Point","coordinates":[-75.61192,40.66392]},"properties":{"name":"Lehigh Carbon Community College","city":"Schnecksville","state":"Pennsylvania","conference":"Eastern Pennsylvania Collegiate Conference","division":"JC","ipedsid":"213525","website":"www.lccc.edu","within_hours_away":5}},{"type":"Feature","geometry":{"type":"Point","coordinates":[-75.37714,40.60665]},"properties":{"name":"Lehigh University","city":"Bethlehem","state":"Pennsylvania","conference":"Patriot League","division":"NCAA D1","ipedsid":"213543","website":"www.lehigh.edu","within_hours_away":5}},{"type":"Feature","geometry":{"type":"Point","coordinates":[-79.17965,37.35034]},"properties":{"name":"Liberty University","city":"Lynchburg","state":"Virginia","conference":"ASUN Conference ","division":"NCAA D1","ipedsid":"232557","website":"www.liberty.edu","within_hours_away":4}},{"type":"Feature","geometry":{"type":"Point","coordinates":[-75.9283,39.80774]},"properties":{"name":"Lincoln University - Pennsylvania","city":"Lincoln University","state":"Pennsylvania","conference":"Central Intercollegiate Athletic Association","division":"NCAA D2","ipedsid":"213598","website":"www.lincoln.edu","within_hours_away":3}},{"type":"Feature","geometry":{"type":"Point","coordinates":[-77.46225,41.14181]},"properties":{"name":"Lock Haven University","city":"Lock Haven","state":"Pennsylvania","conference":"Pennsylvania State Athletic Conference","division":"NCAA D2","ipedsid":"213613","website":"www.lockhaven.edu","within_hours_away":5}},{"type":"Feature","geometry":{"type":"Point","coordinates":[-78.39584,37.30105]},"properties":{"name":"Longwood University","city":"Farmville","state":"Virginia","conference":"Big South Conference","division":"NCAA D1","ipedsid":"232566","website":"www.longwood.edu","within_hours_away":4}},{"type":"Feature","geometry":{"type":"Point","coordinates":[-78.29967,36.10542]},"properties":{"name":"Louisburg College","city":"Louisburg","state":"North Carolina","conference":"NJCAA Region 10","division":"JC","ipedsid":"198871","website":"www.louisburg.edu","within_hours_away":5}},{"type":"Feature","geometry":{"type":"Point","coordinates":[-75.99324,41.19314]},"properties":{"name":"Luzerne County Community College","city":"Nanticoke","state":"Pennsylvania","conference":"Eastern Pennsylvania Athletic Conference","division":"JC","ipedsid":"213659","website":"www.luzerne.edu","within_hours_away":5}},{"type":"Feature","geometry":{"type":"Point","coordinates":[-77.00047,41.24611]},"properties":{"name":"Lycoming College","city":"Williamsport","state":"Pennsylvania","conference":"Middle Atlantic Conferences","division":"NCAA D3","ipedsid":"213668","website":"www.lycoming.edu","within_hours_away":5}},{"type":"Feature","geometry":{"type":"Point","coordinates":[-73.90185,40.88973]},"properties":{"name":"Manhattan College","city":"Riverdale","state":"New York","conference":"Metro Atlantic Athletic Conference","division":"NCAA D1","ipedsid":"192703","website":"www.manhattan.edu","within_hours_away":5}},{"type":"Feature","geometry":{"type":"Point","coordinates":[-79.06834,38.15477]},"properties":{"name":"Mary Baldwin University","city":"Staunton","state":"Virginia","conference":"USA South Athletic Conference","division":"NCAA D3","ipedsid":"232672","website":"https://www.marybaldwin.edu","within_hours_away":3}},{"type":"Feature","geometry":{"type":"Point","coordinates":[-77.12884,38.90553]},"properties":{"name":"Marymount University - VA","city":"Arlington","state":"Virginia","conference":"Capital Athletic Conference","division":"NCAA D3","ipedsid":"232706","website":"https://www.marymount.edu","within_hours_away":1}},{"type":"Feature","geometry":{"type":"Point","coordinates":[-75.63419,41.43455]},"properties":{"name":"Marywood University","city":"Scranton","state":"Pennsylvania","conference":"Colonial States Athletic Conference","division":"NCAA D3","ipedsid":"213826","website":"www.marywood.edu/","within_hours_away":5}},{"type":"Feature","geometry":{"type":"Point","coordinates":[-77.00163,39.58483]},"properties":{"name":"McDaniel College","city":"Westminster","state":"Maryland","conference":"Centennial Conference","division":"NCAA D3","ipedsid":"164270","website":"www.mcdaniel.edu","within_hours_away":2}},{"type":"Feature","geometry":{"type":"Point","coordinates":[-74.65076,40.25435]},"properties":{"name":"Mercer County Community College","city":"West Windsor","state":"New Jersey","conference":"Garden State Athletic Conference","division":"JC","ipedsid":"185509","website":"www.mccc.edu","within_hours_away":4}},{"type":"Feature","geometry":{"type":"Point","coordinates":[-76.98854,40.15868]},"properties":{"name":"Messiah University","city":"Mechanicsburg","state":"Pennsylvania","conference":"Middle Atlantic Conferences","division":"NCAA D3","ipedsid":"213996","website":"www.messiah.edu","within_hours_away":3}},{"type":"Feature","geometry":{"type":"Point","coordinates":[-74.36653,40.50471]},"properties":{"name":"Middlesex County College","city":"Edison","state":"New Jersey","conference":"Garden State Athletic Conference","division":"JC","ipedsid":"185536","website":"www.middlesexcc.edu","within_hours_away":5}},{"type":"Feature","geometry":{"type":"Point","coordinates":[-76.35259,39.99572]},"properties":{"name":"Millersville University of Pennsylvania","city":"Millersville","state":"Pennsylvania","conference":"Pennsylvania State Athletic Conference","division":"NCAA D2","ipedsid":"214041","website":"www.millersville.edu","within_hours_away":4}},{"type":"Feature","geometry":{"type":"Point","coordinates":[-75.97159,41.34527]},"properties":{"name":"Misericordia University","city":"Dallas","state":"Pennsylvania","conference":"Middle Atlantic Conferences","division":"NCAA D3","ipedsid":"214069","website":"www.misericordia.edu","within_hours_away":5}},{"type":"Feature","geometry":{"type":"Point","coordinates":[-74.00648,40.28009]},"properties":{"name":"Monmouth University","city":"West Long Branch","state":"New Jersey","conference":"Big South Conference","division":"NCAA D1","ipedsid":"185572","website":"www.monmouth.edu","within_hours_away":5}},{"type":"Feature","geometry":{"type":"Point","coordinates":[-73.90053,40.86409]},"properties":{"name":"Monroe College","city":"New Rochelle","state":"New York","conference":"NJCAA Region 15","division":"JC","ipedsid":"193308","website":"www.monroecollege.edu","within_hours_away":5}},{"type":"Feature","geometry":{"type":"Point","coordinates":[-74.19854,40.85912]},"properties":{"name":"Montclair State University","city":"Montclair","state":"New Jersey","conference":"New Jersey Athletic Conference","division":"NCAA D3","ipedsid":"185590","website":"www.montclair.edu","within_hours_away":5}},{"type":"Feature","geometry":{"type":"Point","coordinates":[-77.15941,39.09851]},"properties":{"name":"Montgomery College","city":"Rockville","state":"Maryland","conference":"Maryland Junior College Athletic Conference","division":"JC","ipedsid":"163426","website":"www.montgomerycollege.edu","within_hours_away":2}},{"type":"Feature","geometry":{"type":"Point","coordinates":[-75.38096,40.63088]},"properties":{"name":"Moravian University","city":"Bethlehem","state":"Pennsylvania","conference":"Centennial Conference","division":"NCAA D3","ipedsid":"214157","website":"www.moravian.edu","within_hours_away":5}},{"type":"Feature","geometry":{"type":"Point","coordinates":[-77.35217,39.6806]},"properties":{"name":"Mount St. Mary's University","city":"Emmitsburg","state":"Maryland","conference":"Northeast Conference","division":"NCAA D1","ipedsid":"163462","website":"www.msmary.edu","within_hours_away":2}},{"type":"Feature","geometry":{"type":"Point","coordinates":[-75.50831,40.59753]},"properties":{"name":"Muhlenberg College","city":"Allentown","state":"Pennsylvania","conference":"Centennial Conference","division":"NCAA D3","ipedsid":"214175","website":"www.muhlenberg.edu","within_hours_away":4}},{"type":"Feature","geometry":{"type":"Point","coordinates":[-75.44,39.87489]},"properties":{"name":"Neumann University","city":"Aston","state":"Pennsylvania","conference":"Colonial States Athletic Conference","division":"NCAA D3","ipedsid":"214272","website":"www.neumann.edu","within_hours_away":4}},{"type":"Feature","geometry":{"type":"Point","coordinates":[-74.08724,40.70996]},"properties":{"name":"New Jersey City University","city":"Jersey City","state":"New Jersey","conference":"Eastern College Athletic Conference","division":"NCAA D3","ipedsid":"185129","website":"www.njcu.edu","within_hours_away":5}},{"type":"Feature","geometry":{"type":"Point","coordinates":[-74.17711,40.74201]},"properties":{"name":"New Jersey Institute of Technology","city":"Newark","state":"New Jersey","conference":"America East Conference ","division":"NCAA D1","ipedsid":"185828","website":"www.njit.edu/","within_hours_away":5}},{"type":"Feature","geometry":{"type":"Point","coordinates":[-73.9973,40.72947]},"properties":{"name":"New York University","city":"New York","state":"New York","conference":"University Athletic Association","division":"NCAA D3","ipedsid":"193900","website":"www.nyu.edu","within_hours_away":5}},{"type":"Feature","geometry":{"type":"Point","coordinates":[-76.26134,36.84846]},"properties":{"name":"Norfolk State University","city":"Norfolk","state":"Virginia","conference":"Mid-Eastern Athletic Conference","division":"NCAA D1","ipedsid":"232937","website":"www.nsu.edu","within_hours_away":4}},{"type":"Feature","geometry":{"type":"Point","coordinates":[-78.89856,35.9742]},"properties":{"name":"North Carolina Central University","city":"Durham","state":"North Carolina","conference":"Mid-Eastern Athletic Conference","division":"NCAA D1","ipedsid":"199157","website":"www.nccu.edu","within_hours_away":5}},{"type":"Feature","geometry":{"type":"Point","coordinates":[-77.77212,36.01744]},"properties":{"name":"North Carolina Wesleyan College","city":"Rocky Mount","state":"North Carolina","conference":"USA South Athletic Conference","division":"NCAA D3","ipedsid":"199209","website":"www.ncwc.edu","within_hours_away":5}},{"type":"Feature","geometry":{"type":"Point","coordinates":[-75.32346,40.6725]},"properties":{"name":"Northampton County Area Community College","city":"Bethlehem","state":"Pennsylvania","conference":"NJCAA Region 19","division":"JC","ipedsid":"214379","website":"www.northampton.edu","within_hours_away":5}},{"type":"Feature","geometry":{"type":"Point","coordinates":[-74.16687,40.00784]},"properties":{"name":"Ocean County College","city":"Toms River","state":"New Jersey","conference":"Garden State Athletic Conference","division":"JC","ipedsid":"185873","website":"www.ocean.edu/","within_hours_away":5}},{"type":"Feature","geometry":{"type":"Point","coordinates":[-76.30969,36.88488]},"properties":{"name":"Old Dominion University","city":"Norfolk","state":"Virginia","conference":"Conference USA","division":"NCAA D1","ipedsid":"232982","website":"www.odu.edu","within_hours_away":4}},{"type":"Feature","geometry":{"type":"Point","coordinates":[-79.6578,39.94719]},"properties":{"name":"PENNSYLVANIA STATE UNIVERSITY Eberly","city":"Lemont Furnace","state":"Pennsylvania","conference":"PSUAC, USCAA","division":"NCAA D3","ipedsid":"214759","website":"fayette.psu.edu/","within_hours_away":4}},{"type":"Feature","geometry":{"type":"Point","coordinates":[-80.29625,40.6783]},"properties":{"name":"PENNSYLVANIA STATE UNIVERSITY-Penn State Beaver","city":"Monaca","state":"Pennsylvania","conference":"USCAA, Penn State University Athletic Conference","division":"NCAA D3","ipedsid":"214698","website":"beaver.psu.edu/","within_hours_away":5}},{"type":"Feature","geometry":{"type":"Point","coordinates":[-75.97213,40.35797]},"properties":{"name":"PENNSYLVANIA STATE UNIVERSITY-Penn State Berks","city":"Reading","state":"Pennsylvania","conference":"United East","division":"NCAA D3","ipedsid":"214704","website":"berks.psu.edu/","within_hours_away":4}},{"type":"Feature","geometry":{"type":"Point","coordinates":[-76.74196,40.20519]},"properties":{"name":"PENNSYLVANIA STATE UNIVERSITY-Penn State Harrisburg","city":"Middletown","state":"Pennsylvania","conference":"Capital Athletic Conference","division":"NCAA D3","ipedsid":"214713","website":"harrisburg.psu.edu","within_hours_away":3}},{"type":"Feature","geometry":{"type":"Point","coordinates":[-76.16641,40.64257]},"properties":{"name":"PENNSYLVANIA STATE UNIVERSITY-Penn State Schuylkill","city":"Schuylkill Haven","state":"Pennsylvania","conference":"Penn State University Athletic Conference","division":"NAIA","ipedsid":"214810","website":"schuylkill.psu.edu/","within_hours_away":4}},{"type":"Feature","geometry":{"type":"Point","coordinates":[-78.98269,39.43934]},"properties":{"name":"POTOMAC STATE COLLEGE OF WEST VIRGINIA UNIVERSITY","city":"Keyser","state":"West Virginia","conference":"NJCAA Region 20","division":"JC","ipedsid":"237701","website":"www.potomacstatecollege.edu","within_hours_away":3}},{"type":"Feature","geometry":{"type":"Point","coordinates":[-74.00489,40.71169]},"properties":{"name":"Pace University","city":"New York","state":"New York","conference":"Northeast-10 Conference","division":"NCAA D2","ipedsid":"194310","website":"www.pace.edu","within_hours_away":5}},{"type":"Feature","geometry":{"type":"Point","coordinates":[-76.93759,36.67454]},"properties":{"name":"Paul D. Camp Community College","city":"Franklin","state":"Virginia","conference":"NJCAA Region 10","division":"JC","ipedsid":"233037","website":"www.pdc.edu/","within_hours_away":5}},{"type":"Feature","geometry":{"type":"Point","coordinates":[-79.6578,39.94719]},"properties":{"name":"Penn State","city":"University Park","state":"Pennsylvania","conference":"Big Ten Conference","division":"NCAA D1","ipedsid":"214759","website":"fayette.psu.edu/","within_hours_away":4}},{"type":"Feature","geometry":{"type":"Point","coordinates":[-77.0254,41.23688]},"properties":{"name":"Pennsylvania College of Technology","city":"Williamsport","state":"Pennsylvania","conference":"North Eastern Athletic Conference","division":"NCAA D3","ipedsid":"366252","website":"https://www.pct.edu","within_hours_away":5}},{"type":"Feature","geometry":{"type":"Point","coordinates":[-80.00147,40.4385]},"properties":{"name":"Point Park University","city":"Pittsburgh","state":"Pennsylvania","conference":"River States Conference","division":"NAIA","ipedsid":"215442","website":"www.pointpark.edu","within_hours_away":5}},{"type":"Feature","geometry":{"type":"Point","coordinates":[-73.9621,40.69114]},"properties":{"name":"Pratt Institute","city":"Brooklyn","state":"New York","conference":"Coast to Coast Conference","division":"NCAA D3","ipedsid":"194578","website":"www.pratt.edu","within_hours_away":5}},{"type":"Feature","geometry":{"type":"Point","coordinates":[-76.82416,38.88849]},"properties":{"name":"Prince George's Community College","city":"Largo","state":"Maryland","conference":"Maryland JUCO Athletic Conference","division":"JC","ipedsid":"163657","website":"www.pgcc.edu","within_hours_away":2}},{"type":"Feature","geometry":{"type":"Point","coordinates":[-74.6577,40.34711]},"properties":{"name":"Princeton University","city":"Princeton","state":"New Jersey","conference":"Ivy League","division":"NCAA D1","ipedsid":"186131","website":"www.princeton.edu","within_hours_away":5}},{"type":"Feature","geometry":{"type":"Point","coordinates":[-75.12099,39.78146]},"properties":{"name":"ROWAN COLLEGE AT GLOUCESTER COUNTY","city":"Sewell","state":"New Jersey","conference":"Garden State Athletic Conference","division":"JC","ipedsid":"184791","website":"www.rcgc.edu","within_hours_away":4}},{"type":"Feature","geometry":{"type":"Point","coordinates":[-74.44702,40.49953]},"properties":{"name":"RUTGERS UNIVERSITY NEW BRUNSWICK","city":"Piscataway","state":"New Jersey","conference":"Big Ten Conference","division":"NCAA D1","ipedsid":"186380","website":"https://newbrunswick.rutgers.edu/","within_hours_away":5}},{"type":"Feature","geometry":{"type":"Point","coordinates":[-80.54975,37.13688]},"properties":{"name":"Radford University","city":"Radford","state":"Virginia","conference":"Big South Conference","division":"NCAA D1","ipedsid":"233277","website":"https://www.radford.edu","within_hours_away":5}},{"type":"Feature","geometry":{"type":"Point","coordinates":[-77.47812,37.76078]},"properties":{"name":"Randolph-Macon College","city":"Ashland","state":"Virginia","conference":"Old Dominion Athletic Conference","division":"NCAA D3","ipedsid":"233295","website":"www.rmc.edu","within_hours_away":3}},{"type":"Feature","geometry":{"type":"Point","coordinates":[-74.68742,40.61025]},"properties":{"name":"Raritan Valley Community College","city":"Branchburg","state":"New Jersey","conference":"Garden State Athletic Conference","division":"JC","ipedsid":"186645","website":"https://www.raritanval.edu","within_hours_away":5}},{"type":"Feature","geometry":{"type":"Point","coordinates":[-77.39991,37.15695]},"properties":{"name":"Richard Bland College","city":"South Prince George","state":"Virginia","conference":"NJCAA Region 10","division":"JC","ipedsid":"233338","website":"www.rbc.edu","within_hours_away":3}},{"type":"Feature","geometry":{"type":"Point","coordinates":[-74.73696,40.28054]},"properties":{"name":"Rider University","city":"Lawrenceville","state":"New Jersey","conference":"Metro Atlantic Athletic Conference","division":"NCAA D1","ipedsid":"186283","website":"www.rider.edu","within_hours_away":4}},{"type":"Feature","geometry":{"type":"Point","coordinates":[-80.0564,37.29691]},"properties":{"name":"Roanoke College","city":"Salem","state":"Virginia","conference":"Old Dominion Athletic Conference","division":"NCAA D3","ipedsid":"233426","website":"www.roanoke.edu","within_hours_away":4}},{"type":"Feature","geometry":{"type":"Point","coordinates":[-75.32992,40.03475]},"properties":{"name":"Rosemont College","city":"Rosemont","state":"Pennsylvania","conference":"Colonial States Athletic Conference","division":"NCAA D3","ipedsid":"215691","website":"www.rosemont.edu","within_hours_away":4}},{"type":"Feature","geometry":{"type":"Point","coordinates":[-75.05696,39.43907]},"properties":{"name":"Rowan College at Cumberland County","city":"Vineland","state":"New Jersey","conference":"Garden State Athletic Conference","division":"JC","ipedsid":"184205","website":"https://www.rcsj.edu/","within_hours_away":4}},{"type":"Feature","geometry":{"type":"Point","coordinates":[-75.11853,39.71058]},"properties":{"name":"Rowan University","city":"Glassboro","state":"New Jersey","conference":"New Jersey Athletic Conference","division":"NCAA D3","ipedsid":"184782","website":"https://www.rowan.edu","within_hours_away":4}},{"type":"Feature","geometry":{"type":"Point","coordinates":[-74.17492,40.7419]},"properties":{"name":"Rutgers University Newark","city":"Newark","state":"New Jersey","conference":"New Jersey Athletic Conference; Eastern College Athletic Conference; Eastern Intercollegiate Volleyball Association","division":"NCAA D3","ipedsid":"186399","website":"https://www.newark.rutgers.edu/","within_hours_away":5}},{"type":"Feature","geometry":{"type":"Point","coordinates":[-74.43754,40.78094]},"properties":{"name":"Saint Elizabeth University","city":"Morristown","state":"New Jersey","conference":"North Eastern Athletic Conference","division":"NCAA D3","ipedsid":"186618","website":"www.cse.edu","within_hours_away":5}},{"type":"Feature","geometry":{"type":"Point","coordinates":[-75.23833,39.99446]},"properties":{"name":"Saint Joseph's University","city":"Philadelphia","state":"Pennsylvania","conference":"Atlantic 10 Conference","division":"NCAA D1","ipedsid":"215770","website":"https://www.sju.edu","within_hours_away":4}},{"type":"Feature","geometry":{"type":"Point","coordinates":[-74.07154,40.72714]},"properties":{"name":"Saint Peter's University","city":"Jersey City","state":"New Jersey","conference":"Metro Atlantic Athletic Conference","division":"NCAA D1","ipedsid":"186432","website":"www.saintpeters.edu","within_hours_away":5}},{"type":"Feature","geometry":{"type":"Point","coordinates":[-79.40206,40.2922]},"properties":{"name":"Saint Vincent College","city":"Latrobe","state":"Pennsylvania","conference":"Presidents' Athletic Conference","division":"NCAA D3","ipedsid":"215798","website":"https://www.stvincent.edu","within_hours_away":5}},{"type":"Feature","geometry":{"type":"Point","coordinates":[-75.4697,39.69852]},"properties":{"name":"Salem Community College","city":"Carneys Point","state":"New Jersey","conference":"Garden State Athletic Conference","division":"JC","ipedsid":"186469","website":"www.salemcc.edu","within_hours_away":3}},{"type":"Feature","geometry":{"type":"Point","coordinates":[-80.57178,39.28868]},"properties":{"name":"Salem University","city":"Salem","state":"West Virginia","conference":"Independent","division":"NCAA D2","ipedsid":"237783","website":"www.salemu.edu","within_hours_away":5}},{"type":"Feature","geometry":{"type":"Point","coordinates":[-75.60575,38.3454]},"properties":{"name":"Salisbury University","city":"Salisbury","state":"Maryland","conference":"Empire 8 Athletic Conference","division":"NCAA D3","ipedsid":"163851","website":"www.salisbury.edu","within_hours_away":4}},{"type":"Feature","geometry":{"type":"Point","coordinates":[-74.24877,40.74287]},"properties":{"name":"Seton Hall University","city":"South Orange","state":"New Jersey","conference":"Big East Conference","division":"NCAA D1","ipedsid":"186584","website":"www.shu.edu/","within_hours_away":5}},{"type":"Feature","geometry":{"type":"Point","coordinates":[-79.55622,40.30865]},"properties":{"name":"Seton Hill University","city":"Greensburg","state":"Pennsylvania","conference":"Pennsylvania State Athletic Conference","division":"NCAA D2","ipedsid":"215947","website":"www.setonhill.edu","within_hours_away":5}},{"type":"Feature","geometry":{"type":"Point","coordinates":[-78.15836,39.16603]},"properties":{"name":"Shenandoah University","city":"Winchester","state":"Virginia","conference":"Old Dominion Athletic Conference","division":"NCAA D3","ipedsid":"233541","website":"www.su.edu","within_hours_away":2}},{"type":"Feature","geometry":{"type":"Point","coordinates":[-77.80495,39.43413]},"properties":{"name":"Shepherd University","city":"Shepherdstown","state":"West Virginia","conference":"Mountain East Conference","division":"NCAA D2","ipedsid":"237792","website":"www.shepherd.edu/","within_hours_away":2}},{"type":"Feature","geometry":{"type":"Point","coordinates":[-77.522,40.06195]},"properties":{"name":"Shippensburg University of Pennsylvania","city":"Shippensburg","state":"Pennsylvania","conference":"Pennsylvania State Athletic Conference","division":"NCAA D2","ipedsid":"216010","website":"www.ship.edu/","within_hours_away":3}},{"type":"Feature","geometry":{"type":"Point","coordinates":[-79.35033,37.74068]},"properties":{"name":"Southern Virginia University","city":"Buena Vista","state":"Virginia","conference":"Capital Athletic Conference","division":"NCAA D3","ipedsid":"233611","website":"www.svu.edu","within_hours_away":3}},{"type":"Feature","geometry":{"type":"Point","coordinates":[-73.96793,40.69034]},"properties":{"name":"St. Joseph's College Brooklyn","city":"Brooklyn","state":"New York","conference":"Skyline Conference (Division III)","division":"NCAA D3","ipedsid":"195544","website":"www.sjcny.edu","within_hours_away":5}},{"type":"Feature","geometry":{"type":"Point","coordinates":[-76.42575,38.18859]},"properties":{"name":"St. Mary's College of Maryland","city":"St. Mary's City","state":"Maryland","conference":"Capital Athletic Conference","division":"NCAA D3","ipedsid":"163912","website":"www.smcm.edu","within_hours_away":3}},{"type":"Feature","geometry":{"type":"Point","coordinates":[-74.02532,40.74477]},"properties":{"name":"Stevens Institute of Technology","city":"Hoboken","state":"New Jersey","conference":"Empire 8 Athletic Conference","division":"NCAA D3","ipedsid":"186867","website":"www.stevens.edu","within_hours_away":5}},{"type":"Feature","geometry":{"type":"Point","coordinates":[-76.70126,39.4213]},"properties":{"name":"Stevenson University","city":"Stevenson","state":"Maryland","conference":"Middle Atlantic Conferences","division":"NCAA D3","ipedsid":"164173","website":"www.stevenson.edu","within_hours_away":2}},{"type":"Feature","geometry":{"type":"Point","coordinates":[-74.5326,39.49195]},"properties":{"name":"Stockton University","city":"Galloway","state":"New Jersey","conference":"New Jersey Athletic Conference","division":"NCAA D3","ipedsid":"186876","website":"www.stockton.edu","within_hours_away":5}},{"type":"Feature","geometry":{"type":"Point","coordinates":[-76.87536,40.79749]},"properties":{"name":"Susquehanna University","city":"Selinsgrove","state":"Pennsylvania","conference":"Centennial Conference","division":"NCAA D3","ipedsid":"216278","website":"www.susqu.edu","within_hours_away":4}},{"type":"Feature","geometry":{"type":"Point","coordinates":[-75.3516,39.90595]},"properties":{"name":"Swarthmore College","city":"Swarthmore","state":"Pennsylvania","conference":"Centennial Conference","division":"NCAA D3","ipedsid":"216287","website":"www.swarthmore.edu","within_hours_away":4}},{"type":"Feature","geometry":{"type":"Point","coordinates":[-74.77737,40.26874]},"properties":{"name":"The College of New Jersey","city":"Ewing","state":"New Jersey","conference":"New Jersey Athletic Conference","division":"NCAA D3","ipedsid":"187134","website":"www.tcnj.edu","within_hours_away":4}},{"type":"Feature","geometry":{"type":"Point","coordinates":[-75.19275,40.02165]},"properties":{"name":"Thomas Jefferson University","city":"Philadelphia","state":"Pennsylvania","conference":"Central Atlantic Collegiate Conference","division":"NCAA D2","ipedsid":"215099","website":"NOT AVAILABLE","within_hours_away":4}},{"type":"Feature","geometry":{"type":"Point","coordinates":[-76.61223,39.39298]},"properties":{"name":"Towson University","city":"Towson","state":"Maryland","conference":"Colonial Athletic Association","division":"NCAA D1","ipedsid":"164076","website":"www.towson.edu","within_hours_away":2}},{"type":"Feature","geometry":{"type":"Point","coordinates":[-78.83238,40.26784]},"properties":{"name":"UNIVERSITY OF PITTSBURGH JOHNSTOWN","city":"Johnstown","state":"Pennsylvania","conference":"Pennsylvania State Athletic Conference","division":"NCAA D2","ipedsid":"215284","website":"www.upj.pitt.edu","within_hours_away":4}},{"type":"Feature","geometry":{"type":"Point","coordinates":[-74.31979,40.6678]},"properties":{"name":"Union County College","city":"Cranford","state":"New Jersey","conference":"Garden State Athletic Conference","division":"JC","ipedsid":"187198","website":"https://www.ucc.edu","within_hours_away":5}},{"type":"Feature","geometry":{"type":"Point","coordinates":[-76.48167,38.98055]},"properties":{"name":"United States Naval Academy","city":"Annapolis","state":"Maryland","conference":"American Athletic Conference","division":"NCAA D1","ipedsid":"164155","website":"www.usna.edu","within_hours_away":2}},{"type":"Feature","geometry":{"type":"Point","coordinates":[-75.75283,39.67801]},"properties":{"name":"University of Delaware","city":"Newark","state":"Delaware","conference":"Colonial Athletic Association","division":"NCAA D1","ipedsid":"130943","website":"www.udel.edu/","within_hours_away":3}},{"type":"Feature","geometry":{"type":"Point","coordinates":[-79.18417,37.39765]},"properties":{"name":"University of Lynchburg","city":"Lynchburg","state":"Virginia","conference":"Old Dominion Athletic Conference","division":"NCAA D3","ipedsid":"232609","website":"www.lynchburg.edu","within_hours_away":4}},{"type":"Feature","geometry":{"type":"Point","coordinates":[-77.47389,38.30178]},"properties":{"name":"University of Mary Washington","city":"Fredericksburg","state":"Virginia","conference":"Capital Athletic Conference","division":"NCAA D3","ipedsid":"232681","website":"www.umw.edu","within_hours_away":2}},{"type":"Feature","geometry":{"type":"Point","coordinates":[-76.93966,38.98862]},"properties":{"name":"University of Maryland","city":"College Park","state":"Maryland","conference":"Big Ten Conference","division":"NCAA D1","ipedsid":"163286","website":"www.umd.edu","within_hours_away":2}},{"type":"Feature","geometry":{"type":"Point","coordinates":[-76.71157,39.25672]},"properties":{"name":"University of Maryland Baltimore County","city":"Baltimore","state":"Maryland","conference":"America East Conference","division":"NCAA D1","ipedsid":"163268","website":"umbc.edu","within_hours_away":2}},{"type":"Feature","geometry":{"type":"Point","coordinates":[-75.68719,38.21123]},"properties":{"name":"University of Maryland Eastern Shore","city":"Princess Anne","state":"Maryland","conference":"Mid-Eastern Athletic Conference","division":"NCAA D1","ipedsid":"163338","website":"www.umes.edu","within_hours_away":4}},{"type":"Feature","geometry":{"type":"Point","coordinates":[-75.19358,39.95103]},"properties":{"name":"University of Pennsylvania","city":"Philadelphia","state":"Pennsylvania","conference":"Ivy League","division":"NCAA D1","ipedsid":"215062","website":"www.upenn.edu","within_hours_away":4}},{"type":"Feature","geometry":{"type":"Point","coordinates":[-79.95412,40.44264]},"properties":{"name":"University of Pittsburgh-PITTSBURGH CAMPUS","city":"Pittsburgh","state":"Pennsylvania","conference":"Atlantic Coast Conference","division":"NCAA D1","ipedsid":"215293","website":"www.pitt.edu","within_hours_away":5}},{"type":"Feature","geometry":{"type":"Point","coordinates":[-77.5388,37.57742]},"properties":{"name":"University of Richmond","conference":"Atlantic 10 Conference","division":"NCAA D1","ipedsid":"233374","website":"www.richmond.edu","within_hours_away":3}},{"type":"Feature","geometry":{"type":"Point","coordinates":[-75.65804,41.40712]},"properties":{"name":"University of Scranton","city":"Scranton","state":"Pennsylvania","conference":"Landmark Conference","division":"NCAA D3","ipedsid":"215929","website":"www.scranton.edu","within_hours_away":5}},{"type":"Feature","geometry":{"type":"Point","coordinates":[-75.54884,40.11908]},"properties":{"name":"University of Valley Forge","city":"Phoenixville","state":"Pennsylvania","conference":"Colonial States Athletic Conference","division":"NCAA D3","ipedsid":"216542","website":"https://www.valleyforge.edu","within_hours_away":4}},{"type":"Feature","geometry":{"type":"Point","coordinates":[-78.51188,38.03393]},"properties":{"name":"University of Virginia","city":"Charlottesville","state":"Virginia","conference":"Atlantic Coast Conference","division":"NCAA D1","ipedsid":"234076","website":"www.virginia.edu","within_hours_away":3}},{"type":"Feature","geometry":{"type":"Point","coordinates":[-75.20829,39.94651]},"properties":{"name":"University of the Sciences","city":"Philadelphia","state":"Pennsylvania","conference":"Central Atlantic Collegiate Conference","division":"NCAA D2","ipedsid":"215132","website":"www.usciences.edu","within_hours_away":4}},{"type":"Feature","geometry":{"type":"Point","coordinates":[-75.45807,40.19421]},"properties":{"name":"Ursinus College","city":"Collegeville","state":"Pennsylvania","conference":"Centennial Conference","division":"NCAA D3","ipedsid":"216524","website":"www.ursinus.edu","within_hours_away":4}},{"type":"Feature","geometry":{"type":"Point","coordinates":[-75.34023,40.03575]},"properties":{"name":"Villanova University","city":"Villanova","state":"Pennsylvania","conference":"Big East Conference","division":"NCAA D1","ipedsid":"216597","website":"www.villanova.edu","within_hours_away":4}},{"type":"Feature","geometry":{"type":"Point","coordinates":[-77.45362,37.54761]},"properties":{"name":"Virginia Commonwealth University","city":"Richmond","state":"Virginia","conference":"Atlantic 10 Conference","division":"NCAA D1","ipedsid":"234030","website":"https://www.vcu.edu/","within_hours_away":3}},{"type":"Feature","geometry":{"type":"Point","coordinates":[-79.43521,37.79073]},"properties":{"name":"Virginia Military Institute","city":"Lexington","state":"Virginia","conference":"Southern Conference ","division":"NCAA D1","ipedsid":"234085","website":"www.vmi.edu","within_hours_away":3}},{"type":"Feature","geometry":{"type":"Point","coordinates":[-77.4199,37.2365]},"properties":{"name":"Virginia State University","city":"Petersburg","state":"Virginia","conference":"Central Intercollegiate Athletic Association","division":"NCAA D2","ipedsid":"234155","website":"www.vsu.edu","within_hours_away":3}},{"type":"Feature","geometry":{"type":"Point","coordinates":[-80.41996,37.22988]},"properties":{"name":"Virginia Tech","city":"Blacksburg","state":"Virginia","conference":"Atlantic Coast Conference","division":"NCAA D1","ipedsid":"233921","website":"WWW.VT.EDU","within_hours_away":5}},{"type":"Feature","geometry":{"type":"Point","coordinates":[-76.18608,36.86846]},"properties":{"name":"Virginia Wesleyan University","city":"Norfolk","state":"Virginia","conference":"Old Dominion Athletic Conference","division":"NCAA D3","ipedsid":"234173","website":"www.vwu.edu","within_hours_away":4}},{"type":"Feature","geometry":{"type":"Point","coordinates":[-74.09082,40.6145]},"properties":{"name":"Wagner College","city":"Staten Island","state":"New York","conference":"Northeast Conference","division":"NCAA D1","ipedsid":"197197","website":"www.wagner.edu","within_hours_away":5}},{"type":"Feature","geometry":{"type":"Point","coordinates":[-80.24073,40.17091]},"properties":{"name":"Washington & Jefferson College","city":"Washington","state":"Pennsylvania","conference":"Presidents' Athletic Conference","division":"NCAA D3","ipedsid":"216667","website":"www.washjeff.edu","within_hours_away":5}},{"type":"Feature","geometry":{"type":"Point","coordinates":[-76.06873,39.21733]},"properties":{"name":"Washington College","city":"Chestertown","state":"Maryland","conference":"Centennial Conference","division":"NCAA D3","ipedsid":"164216","website":"www.washcoll.edu","within_hours_away":3}},{"type":"Feature","geometry":{"type":"Point","coordinates":[-79.44285,37.78901]},"properties":{"name":"Washington and Lee University","city":"Lexington","state":"Virginia","conference":"Old Dominion Athletic Conference","division":"NCAA D3","ipedsid":"234207","website":"www.wlu.edu/","within_hours_away":3}},{"type":"Feature","geometry":{"type":"Point","coordinates":[-80.18745,39.89934]},"properties":{"name":"Waynesburg University","city":"Waynesburg","state":"Pennsylvania","conference":"Presidents' Athletic Conference","division":"NCAA D3","ipedsid":"216694","website":"www.waynesburg.edu","within_hours_away":5}},{"type":"Feature","geometry":{"type":"Point","coordinates":[-75.59852,39.95191]},"properties":{"name":"West Chester University of Pennsylvania","city":"West Chester","state":"Pennsylvania","conference":"Pennsylvania State Athletic Conference","division":"NCAA D2","ipedsid":"216764","website":"https://www.wcupa.edu","within_hours_away":4}},{"type":"Feature","geometry":{"type":"Point","coordinates":[-79.95393,39.63473]},"properties":{"name":"West Virginia University","city":"Morgantown","state":"West Virginia","conference":"Big 12 Conference","division":"NCAA D1","ipedsid":"238032","website":"www.wvu.edu","within_hours_away":4}},{"type":"Feature","geometry":{"type":"Point","coordinates":[-81.18412,37.7759]},"properties":{"name":"West Virginia University Institute of Technology","city":"Beckley","state":"West Virginia","conference":"River States Conference","division":"NAIA","ipedsid":"237950","website":"www.wvutech.edu","within_hours_away":5}},{"type":"Feature","geometry":{"type":"Point","coordinates":[-80.21707,38.99043]},"properties":{"name":"West Virginia Wesleyan College","city":"Buckhannon","state":"West Virginia","conference":"Mountain East Conference","division":"NCAA D2","ipedsid":"237969","website":"www.wvwc.edu","within_hours_away":5}},{"type":"Feature","geometry":{"type":"Point","coordinates":[-79.56486,40.23432]},"properties":{"name":"Westmoreland County Community College","city":"Youngwood","state":"Pennsylvania","conference":"NJCAA Region 20","division":"JC","ipedsid":"216825","website":"https://westmoreland.edu","within_hours_away":4}},{"type":"Feature","geometry":{"type":"Point","coordinates":[-80.6901,40.07162]},"properties":{"name":"Wheeling University","city":"Wheeling","state":"West Virginia","conference":"Mountain East Conference","division":"NCAA D2","ipedsid":"238078","website":"www.wju.edu","within_hours_away":5}},{"type":"Feature","geometry":{"type":"Point","coordinates":[-75.35518,39.86174]},"properties":{"name":"Widener University","city":"Chester","state":"Pennsylvania","conference":"Middle Atlantic Conferences","division":"NCAA D3","ipedsid":"216852","website":"www.widener.edu","within_hours_away":4}},{"type":"Feature","geometry":{"type":"Point","coordinates":[-75.88849,41.24492]},"properties":{"name":"Wilkes University","city":"Wilkes-Barre","state":"Pennsylvania","conference":"Middle Atlantic Conferences","division":"NCAA D3","ipedsid":"216931","website":"www.wilkes.edu","within_hours_away":5}},{"type":"Feature","geometry":{"type":"Point","coordinates":[-76.71966,37.27327]},"properties":{"name":"William & Mary","city":"Williamsburg","state":"Virginia","conference":"Colonial Athletic Association","division":"NCAA D1","ipedsid":"231624","website":"www.wm.edu","within_hours_away":4}},{"type":"Feature","geometry":{"type":"Point","coordinates":[-74.19875,40.94589]},"properties":{"name":"William Paterson University of New Jersey","city":"Wayne","state":"New Jersey","conference":"New Jersey Athletic Conference","division":"NCAA D3","ipedsid":"187444","website":"www.wpunj.edu","within_hours_away":5}},{"type":"Feature","geometry":{"type":"Point","coordinates":[-75.42205,39.90802]},"properties":{"name":"Williamson College of the Trades","city":"Media","state":"Pennsylvania","conference":"United States Collegiate Athletic Association","division":"JC","ipedsid":"216940","website":"https://www.williamson.edu/","within_hours_away":4}},{"type":"Feature","geometry":{"type":"Point","coordinates":[-75.58634,39.68308]},"properties":{"name":"Wilmington University","city":"New Castle","state":"Delaware","conference":"Central Atlantic Collegiate Conference","division":"NCAA D2","ipedsid":"131113","website":"www.wilmu.edu","within_hours_away":3}},{"type":"Feature","geometry":{"type":"Point","coordinates":[-77.64966,39.95015]},"properties":{"name":"Wilson College","city":"Chambersburg","state":"Pennsylvania","conference":"Colonial States Athletic Conference","division":"NCAA D3","ipedsid":"217013","website":"www.wilson.edu","within_hours_away":3}},{"type":"Feature","geometry":{"type":"Point","coordinates":[-73.92851,40.85077]},"properties":{"name":"Yeshiva University","city":"New York","state":"New York","conference":"Skyline Conference","division":"NCAA D3","ipedsid":"197708","website":"www.yu.edu","within_hours_away":5}},{"type":"Feature","geometry":{"type":"Point","coordinates":[-76.72872,39.94759]},"properties":{"name":"York College of Pennsylvania","city":"York","state":"Pennsylvania","conference":"Capital Athletic Conference","division":"NCAA D3","ipedsid":"217059","website":"www.ycp.edu","within_hours_away":3}}]}